#:common:
#  WorldWeatherOnline:
#    :key: 'key'

:cities:
  - :name: 'Poznań'
    :country: 'Poland'
    :metar: 'EPPO'
    :coords:
      :lat: 52.411048,
      :lon: 16.928329
    :classes:
      OnetPl:
        :url: 'http://pogoda.onet.pl/prognoza-pogody/dzis/europa,polska,poznan,9204.html'
      WpPl:
        :url: 'http://pogoda.wp.pl/miasto,poznan,mid,1201201,mi.html'
      InteriaPl:
        :url: 'http://pogoda.interia.pl/miasta?id=11875'
        
  - :name: 'Mogilno'
    :country: 'Poland'
    :coords:
      :lat: 52.658612
      :lon: 17.955923
    :classes:
      OnetPl:
        :url: 'http://pogoda.onet.pl/prognoza-pogody/dzis/europa,polska,mogilno,9224.html'
      WpPl:
        :url: 'http://pogoda.wp.pl/miasto,mogilno,mid,1201149,mi.html'
      InteriaPl:
        :url: 'http://pogoda.interia.pl/miasta?id=11817'

  - :name: 'Inowrocław'
    :country: 'Poland'
    :coords:
      :lat: 52.799264
      :lon: 18.259935
    :classes:
      OnetPl:
        :url: 'http://pogoda.onet.pl/prognoza-pogody/dzis/europa,polska,inowroclaw,9296.html'
      WpPl:
        :url: 'http://pogoda.wp.pl/miasto,inowroclaw,mid,1201072,mi.html'
      InteriaPl:
        :url: ''

  - :name: 'Toruń'
    :country: 'Poland'
    :coords:
      :lat: 53.019038
      :lon: 18.599052
    :classes:
      OnetPl:
        :url: 'http://pogoda.onet.pl/prognoza-pogody/dzis/europa,polska,torun,9286.html'
      WpPl:
        :url: 'http://pogoda.wp.pl/miasto,torun,mid,1201279,mi.html'
      InteriaPl:
        :url: ''

  - :name: 'Bydgoszcz'
    :country: 'Poland'
    :metar: EPBY
    :coords:
      :lat: 53.0968
      :lon: 17.9777
    :classes:
      OnetPl:
        :url: 'http://pogoda.onet.pl/prognoza-pogody/dzis/europa,polska,bydgoszcz,9315.html'
      WpPl:
        :url: 'http://pogoda.wp.pl/miasto,bydgoszcz,mid,1201023,mi.html'
      InteriaPl:
        :url: ''

  - :name: 'Łódź'
    :country: 'Poland'
    :metar: EPLL
    :coords:
      :lat: 51.760743
      :lon: 19.455986
    :classes:
      OnetPl:
        :url: 'http://pogoda.onet.pl/prognoza-pogody/dzis/europa,polska,lodz,9205.html'
      WpPl:
        :url: 'http://pogoda.wp.pl/miasto,lodz,mid,1201127,mi.html'
      InteriaPl:
        :url: ''

  - :name: 'Wrocław'
    :country: 'Poland'
    :metar: EPWR
    :coords:
      :lat: 51.113265
      :lon: 17.036819
    :classes:
      OnetPl:
        :url: 'http://pogoda.onet.pl/prognoza-pogody/dzis/europa,polska,wroclaw,9203.html'
      WpPl:
        :url: 'http://pogoda.wp.pl/miasto,wroclaw,mid,1201305,mi.html'
      InteriaPl:
        :url: ''

  - :name: 'Zielona Góra'
    :country: 'Poland'
    :metar: EPZG
    :coords:
      :lat: 51.938042
      :lon: 15.506401
    :classes:
      OnetPl:
        :url: 'http://pogoda.onet.pl/prognoza-pogody/dzis/europa,polska,zielona-gora,9333.html'
      WpPl:
        :url: 'http://pogoda.wp.pl/miasto,zielona_gora,mid,1201320,mi.html'
      InteriaPl:
        :url: ''

  - :name: 'Gdańsk'
    :country: 'Poland'
    :metar: EPGD
    :coords:
      :lat: 54.361598
      :lon: 18.646317
    :classes:
      OnetPl:
        :url: 'http://pogoda.onet.pl/prognoza-pogody/dzis/europa,polska,gdansk,9201.html'
      WpPl:
        :url: 'http://pogoda.wp.pl/miasto,gdansk,mid,1201047,mi.html'
      InteriaPl:
        :url: ''

  - :name: 'Warszawa'
    :country: 'Poland'
    :metar: EPWA
    :coords:
      :lat: 52.164909
      :lon: 20.964117
    :classes:
      OnetPl:
        :url: 'http://pogoda.onet.pl/prognoza-pogody/dzis/europa,polska,warszawa,9105.html'
      WpPl:
        :url: 'http://pogoda.wp.pl/miasto,warszawa,mid,1201290,mi.html'
      InteriaPl:
        :url: ''

  - :name: 'Olsztyn'
    :country: 'Poland'
    :metar: EPOD
    :coords:
      :lat: 53.781708
      :lon: 20.479088
    :classes:
      OnetPl:
        :url: 'http://pogoda.onet.pl/prognoza-pogody/dzis/europa,polska,olsztyn,9247.html'
      WpPl:
        :url: 'http://pogoda.wp.pl/miasto,olsztyn,mid,1201173,mi.html'
      InteriaPl:
        :url: ''

  - :name: 'Koszalin'
    :country: 'Poland'
    :metar: EPKO
    :coords:
      :lat: 54.195507
      :lon: 16.171074
    :classes:
      OnetPl:
        :url: 'http://pogoda.onet.pl/prognoza-pogody/dzis/europa,polska,koszalin,9259.html'
      WpPl:
        :url: 'http://pogoda.wp.pl/miasto,koszalin,mid,1201103,mi.html'
      InteriaPl:
        :url: ''

  - :name: 'Szczecin'
    :country: 'Poland'
    :metar: EPSC
    :coords:
      :lat: 53.435147
      :lon: 14.558029
    :classes:
      OnetPl:
        :url: 'http://pogoda.onet.pl/prognoza-pogody/dzis/europa,polska,szczecin,9326.html'
      WpPl:
        :url: 'http://pogoda.wp.pl/miasto,szczecin,mid,1201268,mi.html'
      InteriaPl:
        :url: ''

  - :name: 'Kielce'
    :country: 'Poland'
    :metar: EPKA
    :coords:
      :lat: 50.868941
      :lon: 20.629463
    :classes:
      OnetPl:
        :url: 'http://pogoda.onet.pl/prognoza-pogody/dzis/europa,polska,kielce,9287.html'
      WpPl:
        :url: 'http://pogoda.wp.pl/miasto,kielce,mid,1201091,mi.html'
      InteriaPl:
        :url: ''

  - :name: 'Katowice'
    :country: 'Poland'
    :metar: EPKT
    :coords:
      :lat: 50.241968
      :lon: 19.032927
    :classes:
      OnetPl:
        :url: 'http://pogoda.onet.pl/prognoza-pogody/dzis/europa,polska,katowice,9342.html'
      WpPl:
        :url: 'http://pogoda.wp.pl/miasto,katowice,mid,1201086,mi.html'
      InteriaPl:
        :url: ''

  - :name: 'Jaworzno'
    :country: 'Poland'
    :coords:
      :lat: 50.203847
      :lon: 19.274712
    :classes:
      OnetPl:
        :url: 'http://pogoda.onet.pl/prognoza-pogody/dzis/europa,polska,jaworzno,9521.html'
      WpPl:
        :url: 'http://pogoda.wp.pl/miasto,jaworzno,mid,1201079,mi.html'
      InteriaPl:
        :url: ''

  - :name: 'Kraków'
    :country: 'Poland'
    :metar: EPKK
    :coords:
      :lat: 50.0777
      :lon: 19.7848
    :classes:
      OnetPl:
        :url: 'http://pogoda.onet.pl/prognoza-pogody/dzis/europa,polska,krakow,9202.html'
      WpPl:
        :url: 'http://pogoda.wp.pl/miasto,krakow,mid,1201105,mi.html'
      InteriaPl:
        :url: ''

  - :name: 'Lublin'
    :country: 'Poland'
    :coords:
      :lat: 51.248292
      :lon: 22.569237
    :classes:
      OnetPl:
        :url: 'http://pogoda.onet.pl/prognoza-pogody/dzis/europa,polska,lublin,9303.html'
      WpPl:
        :url: 'http://pogoda.wp.pl/miasto,lublin,mid,1201135,mi.html'
      InteriaPl:
        :url: ''

  - :name: 'Białystok'
    :country: 'Poland'
    :coords:
      :lat: 53.137009
      :lon: 23.168678
    :classes:
      OnetPl:
        :url: 'http://pogoda.onet.pl/prognoza-pogody/dzis/europa,polska,bialystok,9372.html'
      WpPl:
        :url: 'http://pogoda.wp.pl/miasto,bialystok,mid,1201009,mi.html'
      InteriaPl:
        :url: ''

  - :name: 'Suwałki'
    :country: 'Poland'
    :coords:
      :lat: 54.114284
      :lon: 22.928352
    :classes:
      OnetPl:
        :url: 'http://pogoda.onet.pl/prognoza-pogody/dzis/europa,polska,suwalki,9218.html'
      WpPl:
        :url: 'http://pogoda.wp.pl/miasto,suwalki,mid,1201261,mi.html'
      InteriaPl:
        :url: ''

  - :name: 'Nowy Targ'
    :country: 'Poland'
    :coords:
      :lat: 49.478453
      :lon: 20.031109
    :classes:
      OnetPl:
        :url: 'http://pogoda.onet.pl/prognoza-pogody/dzis/europa,polska,nowy-targ,9266.html'
      WpPl:
        :url: 'http://pogoda.wp.pl/miasto,nowy_targ,mid,1201165,mi.html'
      InteriaPl:
        :url: ''

  - :name: 'Zakopane'
    :country: 'Poland'
    :coords:
      :lat: 49.301531
      :lon: 19.949684
    :classes:
      OnetPl:
        :url: 'http://pogoda.onet.pl/prognoza-pogody/dzis/europa,polska,zakopane,9231.html'
      WpPl:
        :url: 'http://pogoda.wp.pl/miasto,zakopane,mid,1201312,mi.html'
      InteriaPl:
        :url: ''

  - :name: 'Rzeszów'
    :country: 'Poland'
    :coords:
      :lat: 50.044926
      :lon: 22.000694
    :classes:
      OnetPl:
        :url: 'http://pogoda.onet.pl/prognoza-pogody/dzis/europa,polska,rzeszow,9332.html'
      WpPl:
        :url: 'http://pogoda.wp.pl/miasto,rzeszow,mid,1201227,mi.html'
      InteriaPl:
        :url: ''

  - :name: 'Golub-Dobrzyń'
    :country: 'Poland'
    :coords:
      :lat: 53.116667
      :lon: 19.05
    :classes:
      OnetPl:
        :url: 'http://pogoda.onet.pl/prognoza-pogody/dzis/europa,polska,golub-dobrzyn,9468.html'
      WpPl:
        :url: 'http://pogoda.wp.pl/miasto,golub-dobrzyn,mid,1201056,mi.html'
      InteriaPl:
        :url: ''

  - :name: 'Włocławek'
    :country: 'Poland'
    :coords:
      :lat: 52.65
      :lon: 19.05
    :classes:
      OnetPl:
        :url: 'http://pogoda.onet.pl/prognoza-pogody/dzis/europa,polska,wloclawek,9295.html'
      WpPl:
        :url: 'http://pogoda.wp.pl/miasto,wloclawek,mid,1201298,mi.html'
      InteriaPl:
        :url: ''

  - :name: 'Karpacz'
    :country: 'Poland'
    :coords:
      :lat: 50.778333
      :lon: 15.757222
    :classes:
      OnetPl:
        :url: 'http://pogoda.onet.pl/prognoza-pogody/dzis/europa,polska,karpacz,9280.html'
      #WpPl:
      #  :url: ''
      InteriaPl:
        :url: ''

  - :name: 'Szklarska Poręba'
    :country: 'Poland'
    :coords:
      :lat: 50.833333
      :lon: 15.533333
    :classes:
      OnetPl:
        :url: 'http://pogoda.onet.pl/prognoza-pogody/dzis/europa,polska,szklarska-poreba,9222.html'
      #WpPl:
      #  :url: ''
      InteriaPl:
        :url: ''

  - :name: 'Kłodzko'
    :country: 'Poland'
    :coords:
      :lat: 50.433333
      :lon: 16.65
    :classes:
      OnetPl:
        :url: 'http://pogoda.onet.pl/prognoza-pogody/dzis/europa,polska,klodzko,9309.html'
      WpPl:
        :url: 'http://pogoda.wp.pl/miasto,klodzko,mid,1201093,mi.html'
      InteriaPl:
        :url: ''

  - :name: 'Wałbrzych'
    :country: 'Poland'
    :coords:
      :lat: 50.766667
      :lon: 16.283333
    :classes:
      OnetPl:
        :url: 'http://pogoda.onet.pl/prognoza-pogody/dzis/europa,polska,walbrzych,9282.html'
      WpPl:
        :url: 'http://pogoda.wp.pl/miasto,walbrzych,mid,1201288,mi.html'
      InteriaPl:
        :url: ''

  - :name: 'Jelenia Góra'
    :country: 'Poland'
    :coords:
      :lat: 50.903333
      :lon: 15.734444
    :classes:
      OnetPl:
        :url: 'http://pogoda.onet.pl/prognoza-pogody/dzis/europa,polska,jelenia-gora,9213.html'
      WpPl:
        :url: 'http://pogoda.wp.pl/miasto,jelenia_gora,mid,1201081,mi.html'
      InteriaPl:
        :url: ''

  - :name: 'Kamienna Góra'
    :country: 'Poland'
    :coords:
      :lat: 50.816667
      :lon: 16.05
    :classes:
      OnetPl:
        :url: 'http://pogoda.onet.pl/prognoza-pogody/dzis/europa,polska,kamienna-gora,9214.html'
      WpPl:
        :url: 'http://pogoda.wp.pl/miasto,kamienna_gora,mid,1201084,mi.html'
      InteriaPl:
        :url: ''

  - :name: 'Tychy'
    :country: 'Poland'
    :coords:
      :lat: 50.166667
      :lon: 19.0
    :classes:
      OnetPl:
        :url: 'http://pogoda.onet.pl/prognoza-pogody/dzis/europa,polska,tychy,9527.html'
      WpPl:
        :url: 'http://pogoda.wp.pl/miasto,tychy,mid,1201283,mi.html'
      InteriaPl:
        :url: ''

  - :name: 'Szczyrk'
    :country: 'Poland'
    :coords:
      :lat: 49.716111
      :lon: 19.026944
    :classes:
      OnetPl:
        :url: 'http://pogoda.onet.pl/prognoza-pogody/dzis/europa,polska,szczyrk,9248.html'
      #WpPl:
      #  :url: ''
      InteriaPl:
        :url: ''

  - :name: 'Ustroń'
    :country: 'Poland'
    :coords:
      :lat: 49.716667
      :lon: 18.816667
    :classes:
      OnetPl:
        :url: 'http://pogoda.onet.pl/prognoza-pogody/dzis/europa,polska,ustron,9284.html'
      #WpPl:
      #  :url: ''
      InteriaPl:
        :url: ''

  - :name: 'Wisła'
    :country: 'Poland'
    :coords:
      :lat: 49.647222
      :lon: 18.8675
    :classes:
      OnetPl:
        :url: 'http://pogoda.onet.pl/prognoza-pogody/dzis/europa,polska,wisla,9313.html'
      #WpPl:
      #  :url: ''
      InteriaPl:
        :url: ''

  - :name: 'Żywiec'
    :country: 'Poland'
    :coords:
      :lat: 49.683333
      :lon: 19.2
    :classes:
      OnetPl:
        :url: 'http://pogoda.onet.pl/prognoza-pogody/dzis/europa,polska,zywiec,9384.html'
      WpPl:
        :url: 'http://pogoda.wp.pl/miasto,zywiec,mid,1201328,mi.html'
      InteriaPl:
        :url: ''

  - :name: 'Limanowa'
    :country: 'Poland'
    :coords:
      :lat: 49.701667
      :lon: 20.425556
    :classes:
      OnetPl:
        :url: 'http://pogoda.onet.pl/prognoza-pogody/dzis/europa,polska,limanowa,9338.html'
      WpPl:
        :url: 'http://pogoda.wp.pl/miasto,limanowa,mid,1201124,mi.html'
      InteriaPl:
        :url: ''

  - :name: 'Mszana Dolna'
    :country: 'Poland'
    :coords:
      :lat: 49.675378
      :lon: 20.076672
    :classes:
      OnetPl:
        :url: 'http://pogoda.onet.pl/prognoza-pogody/dzis/europa,polska,mszana-dolna,9325.html'
      #WpPl:
      #  :url: ''
      InteriaPl:
        :url: ''

  - :name: 'Nowy Sącz'
    :country: 'Poland'
    :coords:
      :lat: 49.625
      :lon: 20.690833
    :classes:
      OnetPl:
        :url: 'http://pogoda.onet.pl/prognoza-pogody/dzis/europa,polska,nowy-sacz,9289.html'
      WpPl:
        :url: 'http://pogoda.wp.pl/miasto,nowy_sacz,mid,1201164,mi.html'
      InteriaPl:
        :url: ''

  - :name: 'Rabka'
    :country: 'Poland'
    :coords:
      :lat: 49.616667
      :lon: 19.966667
    :classes:
      OnetPl:
        :url: 'http://pogoda.onet.pl/prognoza-pogody/dzis/europa,polska,rabka,9319.html'
      #WpPl:
      #  :url: ''
      InteriaPl:
        :url: ''

  - :name: 'Szczawnica'
    :country: 'Poland'
    :coords:
      :lat: 49.422778
      :lon: 20.482778
    :classes:
      OnetPl:
        :url: 'http://pogoda.onet.pl/prognoza-pogody/dzis/europa,polska,szczawnica,9321.html'
      #WpPl:
      #  :url: ''
      InteriaPl:
        :url: ''

  - :name: 'Ustrzyki Dolne'
    :country: 'Poland'
    :coords:
      :lat: 49.433333
      :lon: 22.6
    :classes:
      OnetPl:
        :url: 'http://pogoda.onet.pl/prognoza-pogody/dzis/europa,polska,ustrzyki-dolne,9206.html'
      WpPl:
        :url: 'http://pogoda.wp.pl/miasto,ustrzyki_dolne,mid,1201284,mi.html'
      InteriaPl:
        :url: ''

  - :name: 'Brzozów'
    :country: 'Poland'
    :coords:
      :lat: 49.695278
      :lon: 22.019444
    :classes:
      OnetPl:
        :url: 'http://pogoda.onet.pl/prognoza-pogody/dzis/europa,polska,brzozow,9500.html'
      WpPl:
        :url: 'http://pogoda.wp.pl/miasto,brzozow,mid,1201021,mi.html'
      InteriaPl:
        :url: ''

  - :name: 'Krosno'
    :country: 'Poland'
    :coords:
      :lat: 49.682222
      :lon: 21.765833
    :classes:
      OnetPl:
        :url: 'http://pogoda.onet.pl/prognoza-pogody/dzis/europa,polska,krosno,9304.html'
      WpPl:
        :url: 'http://pogoda.wp.pl/miasto,krosno,mid,1201109,mi.html'
      InteriaPl:
        :url: ''

  - :name: 'Jasło'
    :country: 'Poland'
    :coords:
      :lat: 49.747778
      :lon: 21.471389
    :classes:
      OnetPl:
        :url: 'http://pogoda.onet.pl/prognoza-pogody/dzis/europa,polska,jaslo,9339.html'
      WpPl:
        :url: 'http://pogoda.wp.pl/miasto,jaslo,mid,1201076,mi.html'
      InteriaPl:
        :url: ''

  - :name: 'Sanok'
    :country: 'Poland'
    :coords:
      :lat: 49.55
      :lon: 22.216667
    :classes:
      OnetPl:
        :url: 'http://pogoda.onet.pl/prognoza-pogody/dzis/europa,polska,sanok,9369.html'
      WpPl:
        :url: 'http://pogoda.wp.pl/miasto,sanok,mid,1201229,mi.html'
      InteriaPl:
        :url: ''

  - :name: 'Bukowina Tatrzańska'
    :country: 'Poland'
    :coords:
      :lat: 49.35
      :lon: 20.116667
    :classes:
      OnetPl:
        :url: 'http://pogoda.onet.pl/prognoza-pogody/dzis/europa,polska,bukowina-tatrzanska,9483.html'
      #WpPl:
      #  :url: ''
      InteriaPl:
        :url: ''

  - :name: 'Lubaczów'
    :country: 'Poland'
    :coords:
      :lat: 50.166667
      :lon: 23.116667
    :classes:
      OnetPl:
        :url: 'http://pogoda.onet.pl/prognoza-pogody/dzis/europa,polska,lubaczow,9239.html'
      WpPl:
        :url: 'http://pogoda.wp.pl/miasto,lubaczow,mid,1201131,mi.html'
      InteriaPl:
        :url: ''

  - :name: 'Gorlice'
    :country: 'Poland'
    :coords:
      :lat: 49.65
      :lon: 21.166667
    :classes:
      OnetPl:
        :url: 'http://pogoda.onet.pl/prognoza-pogody/dzis/europa,polska,gorlice,9263.html'
      WpPl:
        :url: 'http://pogoda.wp.pl/miasto,gorlice,mid,1201058,mi.html'
      InteriaPl:
        :url: ''

  - :name: 'Bochnia'
    :country: 'Poland'
    :coords:
      :lat: 49.966667
      :lon: 20.433333
    :classes:
      OnetPl:
        :url: 'http://pogoda.onet.pl/prognoza-pogody/dzis/europa,polska,bochnia,9337.html'
      WpPl:
        :url: 'http://pogoda.wp.pl/miasto,bochnia,mid,1201014,mi.html'
      InteriaPl:
        :url: ''

#  - :name: ''
#    :country: 'Poland'
#    :coords:
#      :lat:
#      :lon:
#    :classes:
#      OnetPl:
#        :url: ''
#      WpPl:
#        :url: ''
#      InteriaPl:
#        :url: ''

# not in Poland
  - :name: Muenster/Osnabrueck
    :country: Germany
    :metar: EDDG
    :coords:
      :lat: 52.1346
      :lon: 7.6848
  - :name: Kardla
    :country: Estonia
    :metar: EEKA
    :coords:
      :lat: 58.9908
      :lon: 22.8307
  - :name: Stockholm
    :country: Sweden
    :metar: ESCM
    :coords:
      :lat: 59.6167
      :lon: 17.95
  - :name: Samedan
    :country: Switzerland
    :metar: LSZS
    :coords:
      :lat: 46.5341
      :lon: 9.8841
  - :name: Helsinki-vantaa
    :country: Finland
    :metar: EFHK
    :coords:
      :lat: 60.3172
      :lon: 24.9633
  - :name: K14-fa-1c
    :country: Netherlands
    :metar: EHKV
    :coords:
      :lat: 53.2667
      :lon: 3.6333
  - :name: D15-fa-1
    :country: Netherlands
    :metar: EHDV
    :coords:
      :lat: 54.3167
      :lon: 2.9333
  - :name: St. Peterburg
    :country: Russia
    :metar: ULLI
    :coords:
      :lat: 59.9667
      :lon: 30.3
  - :name: Southend-On-Sea
    :country: UK
    :metar: EGMC
    :coords:
      :lat: 51.5714
      :lon: 0.6956
  - :name: London Stansted
    :country: UK
    :metar: EGSS
    :coords:
      :lat: 51.885
      :lon: 0.235
  - :name: London
    :country: UK
    :metar: EGLL
    :coords:
      :lat: 51.470969
      :lon: -0.45393
  - :name: Oulu
    :country: Finland
    :metar: EFOU
    :coords:
      :lat: 64.9301
      :lon: 25.3546
  - :name: Hailuoto
    :country: Finland
    :metar: EFHL
    :coords:
      :lat: 65.096198
      :lon: 24.733886
  - :name: Sumburgh Cape
    :country: UK
    :metar: EGPB
    :coords:
      :lat: 59.8789
      :lon: -1.2956
  - :name: Luhansk
    :country: Ukraine
    :metar: UKCW
    :coords:
      :lat: 48.4174
      :lon: 39.3741
  - :name: Heidrun
    :country: Norway
    :metar: ENHE
    :coords:
      :lat: 65.33
      :lon: 2.33
  - :name: Kittila
    :country: Finland
    :metar: EFKT
    :coords:
      :lat: 67.701
      :lon: 24.8468
  - :name: Enontekio
    :country: Finland
    :metar: EFET
    :coords:
      :lat: 68.3626
      :lon: 23.4243
  - :name: Bardufoss
    :country: Norway
    :metar: ENDU
    :coords:
      :lat: 69.0558
      :lon: 18.5404
  - :name: Ivolo
    :country: Finland
    :metar: EFIV
    :coords:
      :lat: 68.674941
      :lon: 27.572021
  - :name: Kirkenes Lufthavn
    :country: Norway
    :metar: ENKR
    :coords:
      :lat: 69.7258
      :lon: 29.8913
  - :name: Hammerfest
    :country: Norway
    :metar: ENHF
    :coords:
      :lat: 70.6797
      :lon: 23.6686
  - :name: Honningsvag
    :country: Norway
    :metar: ENHV
    :coords:
      :lat: 71.0167
      :lon: 25.9833
  - :name: Ercan
    :country: Cyprus
    :metar: LCEN
    :coords:
      :lat: 35.1489
      :lon: 33.4997
  - :name: Akureyri
    :country: Iceland
    :metar: BIAR
    :coords:
      :lat: 65.6856
      :lon: -18.1002
  - :name: Cairo
    :country: Egypt
    :metar: HECA
    :coords:
      :lat: 30.111448
      :lon: 31.4139
  - :name: Cape Tobin
    :country: Greenland
    :metar: BGKT
    :coords:
      :lat: 70.40016
      :lon: -21.966662
  - :name: Svalbard Lufthavn
    :country: Norway
    :metar: ENBJ
    :coords:
      :lat: 78.2461
      :lon: 15.4656
  - :name: Laayoune/hassan Isl
    :country: Morocco
    :metar: GMML
    :coords:
      :lat: 27.1667
      :lon: -13.2167
  - :name: Alykel
    :country: Russia
    :metar: UOOO
    :coords:
      :lat: 69.3111
      :lon: 87.3322
  - :name: Godhavn
    :country: Greenland
    :metar: BGGN
    :coords:
      :lat: 69.253425
      :lon: -53.505249
  - :name: Alert Airport
    :country: Greenland
    :metar: CYLR
    :coords:
      :lat: 82.5178
      :lon: -62.2806
  - :name: Qaanaaq
    :country: Greenland
    :metar: BGQQ
    :coords:
      :lat: 77.4667
      :lon: -69.2167
  - :name: Dubai
    :country: UAE
    :metar: OMDB
    :coords:
      :lat: 25.252971
      :lon: 55.364714
  - :name: Sharjah International
    :country: UAE
    :metar: OMSJ
    :coords:
      :lat: 25.3286
      :lon: 55.5172
  - :name: Khatanga
    :country: Russia
    :metar: UOHH
    :coords:
      :lat: 71.9833
      :lon: 102.4667
  - :name: Maradi
    :country: Niger
    :metar: DRRM
    :coords:
      :lat: 13.4667
      :lon: 7.0833
  - :name: Eureka
    :country: Greenland
    :metar: CWEU
    :coords:
      :lat: 79.9833
      :lon: -85.9333
  - :name: Grise Fiord
    :country: Greenland
    :metar: CWGZ
    :coords:
      :lat: 76.4228
      :lon: -82.9022
  - :name: Sana'a
    :country: Yemen
    :metar: VNPK
    :coords:
      :lat: 15.5167
      :lon: 44.1833
  - :name: Saskylakh
    :country: Russia
    :metar: UERS
    :coords:
      :lat: 71.9667
      :lon: 114.0833
  - :name: Arctic Bay
    :country: Canada
    :metar: CXAT
    :coords:
      :lat: 73.0
      :lon: -85.0167
  - :name: Tiksi
    :country: Russia
    :metar: UEST
    :coords:
      :lat: 71.5833
      :lon: 128.9167
  - :name: S. Pedro
    :country: Cape Verde
    :metar: GVSV
    :coords:
      :lat: 16.8332
      :lon: -25.0555
  - :name: S. Tome
    :country: S. Tome
    :metar: FPPR
    :coords:
      :lat: 0.3782
      :lon: 6.7122
  - :name: Kathmandu
    :country: Nepal
    :metar: VNKT
    :coords:
      :lat: 27.6966
      :lon: 85.3591
  - :name: Bujumbura
    :country: Burundi
    :metar: HBBA
    :coords:
      :lat: -3.324
      :lon: 29.3185
  - :name: New York
    :country: USA
    :metar: KNYC
    :coords:
      :lat: 40.779
      :lon: -73.9692
  - :name: Khabarovsk
    :country: Russia
    :metar: UHHH
    :coords:
      :lat: 48.5167
      :lon: 135.1667
  - :name: Petropavlovsk-Kamchatskij
    :country: Russia
    :metar: UHPP
    :coords:
      :lat: 53.0833
      :lon: 158.5833
  - :name: Rome
    :country: USA
    :metar: KRMG
    :coords:
      :lat: 34.351458
      :lon: -85.163326
  - :name: Grootfontein
    :country: Namibia
    :metar: FXMM
    :coords:
      :lat: -19.6022
      :lon: 18.1227
  - :name: Vancouver
    :country: Canada
    :metar: CYVR
    :coords:
      :lat: 49.1939
      :lon: -123.1844
  - :name: E. T. Joshua Airport
    :country: Lesser Antilles
    :metar: TVSV
    :coords:
      :lat: 13.1435
      :lon: -61.2124
  - :name: Tamatave
    :country: Madagascar
    :metar: FYGF
    :coords:
      :lat: -18.1095
      :lon: 49.3925
  - :name: Portland
    :country: USA
    :metar: KPDX
    :coords:
      :lat: 45.5908
      :lon: -122.6003
  - :name: Tokyo
    :country: Japan
    :metar: RJTT
    :coords:
      :lat: 35.5523
      :lon: 139.7797
  - :name: Plaisance Mauritius
    :country: Mauritius
    :metar: FIMP
    :coords:
      :lat: -20.4302
      :lon: 57.6836
  - :name: Maseru
    :country: Lesotho
    :metar: FXMU
    :coords:
      :lat: -29.4623
      :lon: 27.5525
  - :name: Los Angeles
    :country: USA
    :metar: KLAX
    :coords:
      :lat: 33.946251
      :lon: -118.408442
  - :name: Porto Velho
    :country: Brazil
    :metar: SBPV
    :coords:
      :lat: -8.7667
      :lon: -63.9167
  - :name: Jakarta
    :country: Java
    :metar: WIID
    :coords:
      :lat: -6.15
      :lon: 106.85
  - :name: Wake Island
    :country: Xmas Island
    :metar: PWAK
    :coords:
      :lat: 19.2821
      :lon: 166.6364
  - :name: Honolulu
    :country: Hawaii
    :metar: PHNL
    :coords:
      :lat: 21.333065
      :lon: -157.918282
  - :name: Mount Pleasant
    :country: Falkland Islands
    :metar: EGYP
    :coords:
      :lat: -51.8228
      :lon: -58.4472
  - :name: Honiara
    :country: Solomon Islands
    :metar: AGGH
    :coords:
      :lat: -9.428
      :lon: 160.0548
  - :name: Isla De Pascua
    :country: Polynesia
    :metar: SCIP
    :coords:
      :lat: -27.1648
      :lon: -109.4218
  - :name: Pago Pago
    :country: Samoa
    :metar: NSTU
    :coords:
      :lat: -14.331
      :lon: -170.7105
  - :name: Amundsen-Scott
    :country: Antarctica
    :metar: NZSP
    :coords:
      :lat: -89.983333
      :lon: 179.983333
  - :name: Williams Field
    :country: Antarctica
    :metar: NZCM
    :coords:
      :lat: -77.866667
      :lon: 166.966667
  - :name: Auckland
    :country: New Zeland
    :metar: NZAA
    :coords:
      :lat: -37.005058
      :lon: 174.784025