#:common:
#  WorldWeatherOnline:
#    :key: 'key'

:cities:
  - :name: 'Poznań'
    :country: 'Poland'
    :metar: 'EPPO'
    :coords:
      :lat: 52.411048,
      :lon: 16.928329
    :classes:
      OnetPl:
        :url: 'http://pogoda.onet.pl/prognoza-pogody/dlugoterminowa/europa,polska,poznan,9204.html'
      WpPl:
        :url: 'http://pogoda.wp.pl/cid,43384,miasto,Pozna%C5%84,dlugoterminowa.html'
      InteriaPl:
        :url: 'http://pogoda.interia.pl/prognoza-szczegolowa-poznan,cId,27457'
        
  - :name: 'Mogilno'
    :country: 'Poland'
    :coords:
      :lat: 52.658612
      :lon: 17.955923
    :classes:
      OnetPl:
        :url: 'http://pogoda.onet.pl/prognoza-pogody/dlugoterminowa/europa,polska,mogilno,9224.html'
      WpPl:
        :url: 'http://pogoda.wp.pl/cid,43712,miasto,Mogilno,dlugoterminowa.html'
      InteriaPl:
        :url: 'http://pogoda.interia.pl/prognoza-szczegolowa-mogilno,cId,21821'

  - :name: 'Inowrocław'
    :country: 'Poland'
    :coords:
      :lat: 52.799264
      :lon: 18.259935
    :classes:
      OnetPl:
        :url: 'http://pogoda.onet.pl/prognoza-pogody/dlugoterminowa/europa,polska,inowroclaw,9296.html'
      WpPl:
        :url: 'http://pogoda.wp.pl/cid,43704,miasto,Inowroc%C5%82aw,dlugoterminowa.html'
      InteriaPl:
        :url: 'http://pogoda.interia.pl/prognoza-szczegolowa-inowroclaw,cId,10726'

  - :name: 'Toruń'
    :country: 'Poland'
    :coords:
      :lat: 53.019038
      :lon: 18.599052
    :classes:
      OnetPl:
        :url: 'http://pogoda.onet.pl/prognoza-pogody/dlugoterminowa/europa,polska,torun,9286.html'
      WpPl:
        :url: 'http://pogoda.wp.pl/cid,43943,miasto,Toru%C5%84,dlugoterminowa.html'
      InteriaPl:
        :url: 'http://pogoda.interia.pl/prognoza-szczegolowa-torun,cId,35707'

  - :name: 'Bydgoszcz'
    :country: 'Poland'
    :metar: EPBY
    :coords:
      :lat: 53.0968
      :lon: 17.9777
    :classes:
      OnetPl:
        :url: 'http://pogoda.onet.pl/prognoza-pogody/dlugoterminowa/europa,polska,bydgoszcz,9315.html'
      WpPl:
        :url: 'http://pogoda.wp.pl/cid,43123,miasto,Bydgoszcz,dlugoterminowa.html'
      InteriaPl:
        :url: 'http://pogoda.interia.pl/prognoza-szczegolowa-bydgoszcz,cId,3696'

  - :name: 'Łódź'
    :country: 'Poland'
    :metar: EPLL
    :coords:
      :lat: 51.760743
      :lon: 19.455986
    :classes:
      OnetPl:
        :url: 'http://pogoda.onet.pl/prognoza-pogody/dlugoterminowa/europa,polska,lodz,9205.html'
      WpPl:
        :url: 'http://pogoda.wp.pl/cid,43495,miasto,%C5%81%C3%B3d%C5%BA,dlugoterminowa.html'
      InteriaPl:
        :url: 'http://pogoda.interia.pl/prognoza-szczegolowa-lodz,cId,19059'

  - :name: 'Wrocław'
    :country: 'Poland'
    :metar: EPWR
    :coords:
      :lat: 51.113265
      :lon: 17.036819
    :classes:
      OnetPl:
        :url: 'http://pogoda.onet.pl/prognoza-pogody/dlugoterminowa/europa,polska,wroclaw,9203.html'
      WpPl:
        :url: 'http://pogoda.wp.pl/cid,43763,miasto,Wroc%C5%82aw,dlugoterminowa.html'
      InteriaPl:
        :url: 'http://pogoda.interia.pl/prognoza-szczegolowa-wroclaw,cId,39240'

  - :name: 'Zielona Góra'
    :country: 'Poland'
    :metar: EPZG
    :coords:
      :lat: 51.938042
      :lon: 15.506401
    :classes:
      OnetPl:
        :url: 'http://pogoda.onet.pl/prognoza-pogody/dlugoterminowa/europa,polska,zielona-gora,9333.html'
      WpPl:
        :url: 'http://pogoda.wp.pl/cid,43848,miasto,Zielona%20G%C3%B3ra,dlugoterminowa.html'
      InteriaPl:
        :url: 'http://pogoda.interia.pl/prognoza-szczegolowa-zielona-gora,cId,41517'

  - :name: 'Gdańsk'
    :country: 'Poland'
    :metar: EPGD
    :coords:
      :lat: 54.361598
      :lon: 18.646317
    :classes:
      OnetPl:
        :url: 'http://pogoda.onet.pl/prognoza-pogody/dlugoterminowa/europa,polska,gdansk,9201.html'
      WpPl:
        :url: 'http://pogoda.wp.pl/cid,43935,miasto,Gda%C5%84sk,dlugoterminowa.html'
      InteriaPl:
        :url: 'http://pogoda.interia.pl/prognoza-szczegolowa-gdansk,cId,8048'

  - :name: 'Warszawa'
    :country: 'Poland'
    :metar: EPWA
    :coords:
      :lat: 52.164909
      :lon: 20.964117
    :classes:
      OnetPl:
        :url: 'http://pogoda.onet.pl/prognoza-pogody/dlugoterminowa/europa,polska,warszawa,9105.html'
      WpPl:
        :url: 'http://pogoda.wp.pl/cid,43116,miasto,Warszawa,dlugoterminowa.html'
      InteriaPl:
        :url: 'http://pogoda.interia.pl/prognoza-szczegolowa-warszawa,cId,36917'

  - :name: 'Olsztyn'
    :country: 'Poland'
    :metar: EPOD
    :coords:
      :lat: 53.781708
      :lon: 20.479088
    :classes:
      OnetPl:
        :url: 'http://pogoda.onet.pl/prognoza-pogody/dlugoterminowa/europa,polska,olsztyn,9247.html'
      WpPl:
        :url: 'http://pogoda.wp.pl/cid,43701,miasto,Olsztyn,dlugoterminowa.html'
      InteriaPl:
        :url: 'http://pogoda.interia.pl/prognoza-szczegolowa-olsztyn,cId,24210'

  - :name: 'Koszalin'
    :country: 'Poland'
    :metar: EPKO
    :coords:
      :lat: 54.195507
      :lon: 16.171074
    :classes:
      OnetPl:
        :url: 'http://pogoda.onet.pl/prognoza-pogody/dlugoterminowa/europa,polska,koszalin,9259.html'
      WpPl:
        :url: 'http://pogoda.wp.pl/cid,43669,miasto,Koszalin,dlugoterminowa.html'
      InteriaPl:
        :url: 'http://pogoda.interia.pl/prognoza-szczegolowa-koszalin,cId,15719'

  - :name: 'Szczecin'
    :country: 'Poland'
    :metar: EPSC
    :coords:
      :lat: 53.435147
      :lon: 14.558029
    :classes:
      OnetPl:
        :url: 'http://pogoda.onet.pl/prognoza-pogody/dlugoterminowa/europa,polska,szczecin,9326.html'
      WpPl:
        :url: 'http://pogoda.wp.pl/cid,43723,miasto,Szczecin,dlugoterminowa.html'
      InteriaPl:
        :url: 'http://pogoda.interia.pl/prognoza-szczegolowa-szczecin,cId,34668'

  - :name: 'Kielce'
    :country: 'Poland'
    :metar: EPKA
    :coords:
      :lat: 50.868941
      :lon: 20.629463
    :classes:
      OnetPl:
        :url: 'http://pogoda.onet.pl/prognoza-pogody/dlugoterminowa/europa,polska,kielce,9287.html'
      WpPl:
        :url: 'http://pogoda.wp.pl/cid,43875,miasto,Kielce,dlugoterminowa.html'
      InteriaPl:
        :url: 'http://pogoda.interia.pl/prognoza-szczegolowa-kielce,cId,13378'

  - :name: 'Katowice'
    :country: 'Poland'
    :metar: EPKT
    :coords:
      :lat: 50.241968
      :lon: 19.032927
    :classes:
      OnetPl:
        :url: 'http://pogoda.onet.pl/prognoza-pogody/dlugoterminowa/europa,polska,katowice,9342.html'
      WpPl:
        :url: 'http://pogoda.wp.pl/cid,43866,miasto,Katowice,dlugoterminowa.html'
      InteriaPl:
        :url: 'http://pogoda.interia.pl/prognoza-szczegolowa-katowice,cId,13095'

  - :name: 'Jaworzno'
    :country: 'Poland'
    :coords:
      :lat: 50.203847
      :lon: 19.274712
    :classes:
      OnetPl:
        :url: 'http://pogoda.onet.pl/prognoza-pogody/dlugoterminowa/europa,polska,jaworzno,9521.html'
      WpPl:
        :url: 'http://pogoda.wp.pl/cid,43646,miasto,Jaworzno,dlugoterminowa.html'
      InteriaPl:
        :url: 'http://pogoda.interia.pl/prognoza-szczegolowa-jaworzno,cId,11698'

  - :name: 'Kraków'
    :country: 'Poland'
    :metar: EPKK
    :coords:
      :lat: 50.0777
      :lon: 19.7848
    :classes:
      OnetPl:
        :url: 'http://pogoda.onet.pl/prognoza-pogody/dlugoterminowa/europa,polska,krakow,9202.html'
      WpPl:
        :url: 'http://pogoda.wp.pl/cid,43289,miasto,Krak%C3%B3w,dlugoterminowa.html'
      InteriaPl:
        :url: 'http://pogoda.interia.pl/prognoza-szczegolowa-krakow,cId,4970'

  - :name: 'Lublin'
    :country: 'Poland'
    :coords:
      :lat: 51.248292
      :lon: 22.569237
    :classes:
      OnetPl:
        :url: 'http://pogoda.onet.pl/prognoza-pogody/dlugoterminowa/europa,polska,lublin,9303.html'
      WpPl:
        :url: 'http://pogoda.wp.pl/cid,43145,miasto,Lublin,dlugoterminowa.html'
      InteriaPl:
        :url: 'http://pogoda.interia.pl/prognoza-szczegolowa-lublin,cId,19393'

  - :name: 'Białystok'
    :country: 'Poland'
    :coords:
      :lat: 53.137009
      :lon: 23.168678
    :classes:
      OnetPl:
        :url: 'http://pogoda.onet.pl/prognoza-pogody/dlugoterminowa/europa,polska,bialystok,9372.html'
      WpPl:
        :url: 'http://pogoda.wp.pl/cid,43390,miasto,Bia%C5%82ystok,dlugoterminowa.html'
      InteriaPl:
        :url: 'http://pogoda.interia.pl/prognoza-szczegolowa-bialystok,cId,1197'

  - :name: 'Suwałki'
    :country: 'Poland'
    :coords:
      :lat: 54.114284
      :lon: 22.928352
    :classes:
      OnetPl:
        :url: 'http://pogoda.onet.pl/prognoza-pogody/dlugoterminowa/europa,polska,suwalki,9218.html'
      WpPl:
        :url: 'http://pogoda.wp.pl/cid,43079,miasto,Suwa%C5%82ki,dlugoterminowa.html'
      InteriaPl:
        :url: 'http://pogoda.interia.pl/prognoza-szczegolowa-suwalki,cId,34166'

  - :name: 'Nowy Targ'
    :country: 'Poland'
    :coords:
      :lat: 49.478453
      :lon: 20.031109
    :classes:
      OnetPl:
        :url: 'http://pogoda.onet.pl/prognoza-pogody/dlugoterminowa/europa,polska,nowy-targ,9266.html'
      WpPl:
        :url: 'http://pogoda.wp.pl/cid,43053,miasto,Nowy%20Targ,dlugoterminowa.html'
      InteriaPl:
        :url: 'http://pogoda.interia.pl/prognoza-szczegolowa-nowy-targ,cId,23614'

  - :name: 'Zakopane'
    :country: 'Poland'
    :coords:
      :lat: 49.301531
      :lon: 19.949684
    :classes:
      OnetPl:
        :url: 'http://pogoda.onet.pl/prognoza-pogody/dlugoterminowa/europa,polska,zakopane,9231.html'
      WpPl:
        :url: 'http://pogoda.wp.pl/cid,43341,miasto,Zakopane,dlugoterminowa.html'
      InteriaPl:
        :url: 'http://pogoda.interia.pl/prognoza-szczegolowa-zakopane,cId,40219'

  - :name: 'Rzeszów'
    :country: 'Poland'
    :coords:
      :lat: 50.044926
      :lon: 22.000694
    :classes:
      OnetPl:
        :url: 'http://pogoda.onet.pl/prognoza-pogody/dlugoterminowa/europa,polska,rzeszow,9332.html'
      WpPl:
        :url: 'http://pogoda.wp.pl/cid,43442,miasto,Rzesz%C3%B3w,dlugoterminowa.html'
      InteriaPl:
        :url: 'http://pogoda.interia.pl/prognoza-szczegolowa-rzeszow,cId,30389'

  - :name: 'Golub-Dobrzyń'
    :country: 'Poland'
    :coords:
      :lat: 53.116667
      :lon: 19.05
    :classes:
      OnetPl:
        :url: 'http://pogoda.onet.pl/prognoza-pogody/dlugoterminowa/europa,polska,golub-dobrzyn,9468.html'
      WpPl:
        :url: 'http://pogoda.wp.pl/cid,43445,miasto,Golub-Dobrzy%C5%84,dlugoterminowa.html'
      InteriaPl:
        :url: 'http://pogoda.interia.pl/prognoza-szczegolowa-golub-dobrzyn,cId,8822'

  - :name: 'Włocławek'
    :country: 'Poland'
    :coords:
      :lat: 52.65
      :lon: 19.05
    :classes:
      OnetPl:
        :url: 'http://pogoda.onet.pl/prognoza-pogody/dlugoterminowa/europa,polska,wloclawek,9295.html'
      WpPl:
        :url: 'http://pogoda.wp.pl/cid,43774,miasto,W%C5%82oc%C5%82awek,dlugoterminowa.html'
      InteriaPl:
        :url: 'http://pogoda.interia.pl/prognoza-szczegolowa-wloclawek,cId,38207'

  - :name: 'Karpacz'
    :country: 'Poland'
    :coords:
      :lat: 50.778333
      :lon: 15.757222
    :classes:
      OnetPl:
        :url: 'http://pogoda.onet.pl/prognoza-pogody/dlugoterminowa/europa,polska,karpacz,9280.html'
      WpPl:
        :url: 'http://pogoda.wp.pl/cid,43793,miasto,Karpacz,dlugoterminowa.html'
      InteriaPl:
        :url: 'http://pogoda.interia.pl/prognoza-szczegolowa-karpacz,cId,12958'

  - :name: 'Szklarska Poręba'
    :country: 'Poland'
    :coords:
      :lat: 50.833333
      :lon: 15.533333
    :classes:
      OnetPl:
        :url: 'http://pogoda.onet.pl/prognoza-pogody/dlugoterminowa/europa,polska,szklarska-poreba,9222.html'
      WpPl:
        :url: 'http://pogoda.wp.pl/cid,43940,miasto,Szklarska%20Por%C4%99ba,dlugoterminowa.html'
      InteriaPl:
        :url: 'http://pogoda.interia.pl/prognoza-szczegolowa-szklarska-poreba,cId,34920'

  - :name: 'Kłodzko'
    :country: 'Poland'
    :coords:
      :lat: 50.433333
      :lon: 16.65
    :classes:
      OnetPl:
        :url: 'http://pogoda.onet.pl/prognoza-pogody/dlugoterminowa/europa,polska,klodzko,9309.html'
      WpPl:
        :url: 'http://pogoda.wp.pl/cid,43412,miasto,K%C5%82odzko,dlugoterminowa.html'
      InteriaPl:
        :url: 'http://pogoda.interia.pl/prognoza-szczegolowa-klodzko,cId,13781'

  - :name: 'Wałbrzych'
    :country: 'Poland'
    :coords:
      :lat: 50.766667
      :lon: 16.283333
    :classes:
      OnetPl:
        :url: 'http://pogoda.onet.pl/prognoza-pogody/dlugoterminowa/europa,polska,walbrzych,9282.html'
      WpPl:
        :url: 'http://pogoda.wp.pl/cid,43314,miasto,Wa%C5%82brzych,dlugoterminowa.html'
      InteriaPl:
        :url: 'http://pogoda.interia.pl/prognoza-szczegolowa-walbrzych,cId,36757'

  - :name: 'Jelenia Góra'
    :country: 'Poland'
    :coords:
      :lat: 50.903333
      :lon: 15.734444
    :classes:
      OnetPl:
        :url: 'http://pogoda.onet.pl/prognoza-pogody/dlugoterminowa/europa,polska,jelenia-gora,9213.html'
      WpPl:
        :url: 'http://pogoda.wp.pl/cid,43055,miasto,Jelenia%20G%C3%B3ra,dlugoterminowa.html'
      InteriaPl:
        :url: 'http://pogoda.interia.pl/prognoza-szczegolowa-jelenia-gora,cId,11818'

  - :name: 'Kamienna Góra'
    :country: 'Poland'
    :coords:
      :lat: 50.816667
      :lon: 16.05
    :classes:
      OnetPl:
        :url: 'http://pogoda.onet.pl/prognoza-pogody/dlugoterminowa/europa,polska,kamienna-gora,9214.html'
      WpPl:
        :url: 'http://pogoda.wp.pl/cid,43908,miasto,Kamienna%20G%C3%B3ra,dlugoterminowa.html'
      InteriaPl:
        :url: 'http://pogoda.interia.pl/prognoza-szczegolowa-kamienna-gora,cId,12636'

  - :name: 'Tychy'
    :country: 'Poland'
    :coords:
      :lat: 50.166667
      :lon: 19.0
    :classes:
      OnetPl:
        :url: 'http://pogoda.onet.pl/prognoza-pogody/dlugoterminowa/europa,polska,tychy,9527.html'
      WpPl:
        :url: 'http://pogoda.wp.pl/cid,43476,miasto,Tychy,dlugoterminowa.html'
      InteriaPl:
        :url: 'http://pogoda.interia.pl/prognoza-szczegolowa-tychy,cId,36326'

  - :name: 'Szczyrk'
    :country: 'Poland'
    :coords:
      :lat: 49.716111
      :lon: 19.026944
    :classes:
      OnetPl:
        :url: 'http://pogoda.onet.pl/prognoza-pogody/dlugoterminowa/europa,polska,szczyrk,9248.html'
      WpPl:
        :url: 'http://pogoda.wp.pl/cid,43572,miasto,Szczyrk,dlugoterminowa.html'
      InteriaPl:
        :url: 'http://pogoda.interia.pl/prognoza-szczegolowa-szczyrk,cId,34803'

  - :name: 'Ustroń'
    :country: 'Poland'
    :coords:
      :lat: 49.716667
      :lon: 18.816667
    :classes:
      OnetPl:
        :url: 'http://pogoda.onet.pl/prognoza-pogody/dlugoterminowa/europa,polska,ustron,9284.html'
      WpPl:
        :url: 'http://pogoda.wp.pl/cid,43678,miasto,Ustro%C5%84,dlugoterminowa.html'
      InteriaPl:
        :url: 'http://pogoda.interia.pl/prognoza-szczegolowa-ustron,cId,36654'

  - :name: 'Wisła'
    :country: 'Poland'
    :coords:
      :lat: 49.647222
      :lon: 18.8675
    :classes:
      OnetPl:
        :url: 'http://pogoda.onet.pl/prognoza-pogody/dlugoterminowa/europa,polska,wisla,9313.html'
      WpPl:
        :url: 'http://pogoda.wp.pl/cid,43606,miasto,Wis%C5%82a,dlugoterminowa.html'
      InteriaPl:
        :url: 'http://pogoda.interia.pl/prognoza-szczegolowa-wisla,cId,37996'

  - :name: 'Żywiec'
    :country: 'Poland'
    :coords:
      :lat: 49.683333
      :lon: 19.2
    :classes:
      OnetPl:
        :url: 'http://pogoda.onet.pl/prognoza-pogody/dlugoterminowa/europa,polska,zywiec,9384.html'
      WpPl:
        :url: 'http://pogoda.wp.pl/cid,43427,miasto,%C5%BBywiec,dlugoterminowa.html'
      InteriaPl:
        :url: 'http://pogoda.interia.pl/prognoza-szczegolowa-zywiec,cId,42086'

  - :name: 'Limanowa'
    :country: 'Poland'
    :coords:
      :lat: 49.701667
      :lon: 20.425556
    :classes:
      OnetPl:
        :url: 'http://pogoda.onet.pl/prognoza-pogody/dlugoterminowa/europa,polska,limanowa,9338.html'
      WpPl:
        :url: 'http://pogoda.wp.pl/cid,43666,miasto,Limanowa,dlugoterminowa.html'
      InteriaPl:
        :url: 'http://pogoda.interia.pl/prognoza-szczegolowa-limanowa,cId,18647'

  - :name: 'Mszana Dolna'
    :country: 'Poland'
    :coords:
      :lat: 49.675378
      :lon: 20.076672
    :classes:
      OnetPl:
        :url: 'http://pogoda.onet.pl/prognoza-pogody/dlugoterminowa/europa,polska,mszana-dolna,9325.html'
      #WpPl:
      #  :url: ''
      InteriaPl:
        :url: 'http://pogoda.interia.pl/prognoza-szczegolowa-mszana-dolna,cId,22190'

  - :name: 'Nowy Sącz'
    :country: 'Poland'
    :coords:
      :lat: 49.625
      :lon: 20.690833
    :classes:
      OnetPl:
        :url: 'http://pogoda.onet.pl/prognoza-pogody/dlugoterminowa/europa,polska,nowy-sacz,9289.html'
      WpPl:
        :url: 'http://pogoda.wp.pl/cid,43337,miasto,Nowy%20S%C4%85cz,dlugoterminowa.html'
      InteriaPl:
        :url: 'http://pogoda.interia.pl/prognoza-szczegolowa-nowy-sacz,cId,23590'

  - :name: 'Rabka'
    :country: 'Poland'
    :coords:
      :lat: 49.616667
      :lon: 19.966667
    :classes:
      OnetPl:
        :url: 'http://pogoda.onet.pl/prognoza-pogody/dlugoterminowa/europa,polska,rabka,9319.html'
      WpPl:
        :url: 'http://pogoda.wp.pl/cid,43619,miasto,Rabka-Zdr%C3%B3j,dlugoterminowa.html'
      InteriaPl:
        :url: 'http://pogoda.interia.pl/prognoza-szczegolowa-rabka,cId,28377'

  - :name: 'Szczawnica'
    :country: 'Poland'
    :coords:
      :lat: 49.422778
      :lon: 20.482778
    :classes:
      OnetPl:
        :url: 'http://pogoda.onet.pl/prognoza-pogody/dlugoterminowa/europa,polska,szczawnica,9321.html'
      WpPl:
        :url: 'http://pogoda.wp.pl/cid,43170,miasto,Szczawnica,dlugoterminowa.html'
      InteriaPl:
        :url: 'http://pogoda.interia.pl/prognoza-szczegolowa-szczawnica,cId,34651'

  - :name: 'Ustrzyki Dolne'
    :country: 'Poland'
    :coords:
      :lat: 49.433333
      :lon: 22.6
    :classes:
      OnetPl:
        :url: 'http://pogoda.onet.pl/prognoza-pogody/dlugoterminowa/europa,polska,ustrzyki-dolne,9206.html'
      WpPl:
        :url: 'http://pogoda.wp.pl/cid,43425,miasto,Ustrzyki%20Dolne,dlugoterminowa.html'
      InteriaPl:
        :url: 'http://pogoda.interia.pl/prognoza-szczegolowa-ustrzyki-dolne,cId,36664'

  - :name: 'Ustrzyki Górne'
    :country: 'Poland'
    :coords:
      :lat: 49.101288
      :lon: 22.656813
    :classes:
      #OnetPl:
      #  :url: ''
      WpPl:
        :url: 'http://pogoda.wp.pl/cid,7603,miasto,Ustrzyki%20G%C3%B3rne,dlugoterminowa.html'
      InteriaPl:
        :url: 'http://pogoda.interia.pl/prognoza-szczegolowa-ustrzyki-gorne,cId,36665'

  - :name: 'Brzozów'
    :country: 'Poland'
    :coords:
      :lat: 49.695278
      :lon: 22.019444
    :classes:
      OnetPl:
        :url: 'http://pogoda.onet.pl/prognoza-pogody/dlugoterminowa/europa,polska,brzozow,9500.html'
      WpPl:
        :url: 'http://pogoda.wp.pl/cid,43565,miasto,Brzoz%C3%B3w,dlugoterminowa.html'
      InteriaPl:
        :url: 'http://pogoda.interia.pl/prognoza-szczegolowa-brzozow,cId,3130'

  - :name: 'Krosno'
    :country: 'Poland'
    :coords:
      :lat: 49.682222
      :lon: 21.765833
    :classes:
      OnetPl:
        :url: 'http://pogoda.onet.pl/prognoza-pogody/dlugoterminowa/europa,polska,krosno,9304.html'
      WpPl:
        :url: 'http://pogoda.wp.pl/cid,43844,miasto,Krosno,dlugoterminowa.html'
      InteriaPl:
        :url: 'http://pogoda.interia.pl/prognoza-szczegolowa-krosno,cId,16544'

  - :name: 'Jasło'
    :country: 'Poland'
    :coords:
      :lat: 49.747778
      :lon: 21.471389
    :classes:
      OnetPl:
        :url: 'http://pogoda.onet.pl/prognoza-pogody/dlugoterminowa/europa,polska,jaslo,9339.html'
      WpPl:
        :url: 'http://pogoda.wp.pl/cid,43087,miasto,Jas%C5%82o,dlugoterminowa.html'
      InteriaPl:
        :url: 'http://pogoda.interia.pl/prognoza-szczegolowa-jaslo,cId,11529'

  - :name: 'Sanok'
    :country: 'Poland'
    :coords:
      :lat: 49.55
      :lon: 22.216667
    :classes:
      OnetPl:
        :url: 'http://pogoda.onet.pl/prognoza-pogody/dlugoterminowa/europa,polska,sanok,9369.html'
      WpPl:
        :url: 'http://pogoda.wp.pl/cid,43349,miasto,Sanok,dlugoterminowa.html'
      InteriaPl:
        :url: 'http://pogoda.interia.pl/prognoza-szczegolowa-sanok,cId,30624'

  - :name: 'Bukowina Tatrzańska'
    :country: 'Poland'
    :coords:
      :lat: 49.35
      :lon: 20.116667
    :classes:
      OnetPl:
        :url: 'http://pogoda.onet.pl/prognoza-pogody/dlugoterminowa/europa,polska,bukowina-tatrzanska,9483.html'
      WpPl:
        :url: 'http://pogoda.wp.pl/cid,5747,miasto,Bukowina%20Tatrza%C5%84ska,dlugoterminowa.html'
      InteriaPl:
        :url: 'http://pogoda.interia.pl/prognoza-szczegolowa-bukowina-tatrzanska,cId,3571'

  - :name: 'Lubaczów'
    :country: 'Poland'
    :coords:
      :lat: 50.166667
      :lon: 23.116667
    :classes:
      OnetPl:
        :url: 'http://pogoda.onet.pl/prognoza-pogody/dlugoterminowa/europa,polska,lubaczow,9239.html'
      WpPl:
        :url: 'http://pogoda.wp.pl/cid,43660,miasto,Lubacz%C3%B3w,dlugoterminowa.html'
      InteriaPl:
        :url: 'http://pogoda.interia.pl/prognoza-szczegolowa-lubaczow,cId,19243'

  - :name: 'Gorlice'
    :country: 'Poland'
    :coords:
      :lat: 49.65
      :lon: 21.166667
    :classes:
      OnetPl:
        :url: 'http://pogoda.onet.pl/prognoza-pogody/dlugoterminowa/europa,polska,gorlice,9263.html'
      WpPl:
        :url: 'http://pogoda.wp.pl/cid,43895,miasto,Gorlice,dlugoterminowa.html'
      InteriaPl:
        :url: 'http://pogoda.interia.pl/prognoza-szczegolowa-gorlice,cId,9011'

  - :name: 'Bochnia'
    :country: 'Poland'
    :coords:
      :lat: 49.966667
      :lon: 20.433333
    :classes:
      OnetPl:
        :url: 'http://pogoda.onet.pl/prognoza-pogody/dlugoterminowa/europa,polska,bochnia,9337.html'
      WpPl:
        :url: 'http://pogoda.wp.pl/cid,43892,miasto,Bochnia,dlugoterminowa.html'
      InteriaPl:
        :url: 'http://pogoda.interia.pl/prognoza-szczegolowa-bochnia,cId,1812'

  - :name: 'Siedlce'
    :country: 'Poland'
    :coords:
      :lat: 52.167814
      :lon: 22.289935
    :classes:
      OnetPl:
        :url: 'http://pogoda.onet.pl/prognoza-pogody/dlugoterminowa/europa,polska,siedlce,9236.html'
      WpPl:
        :url: 'http://pogoda.wp.pl/cid,43718,miasto,Siedlce,dlugoterminowa.html'
      InteriaPl:
        :url: 'http://pogoda.interia.pl/prognoza-szczegolowa-siedlce,cId,30944'

  - :name: 'Bogatynia'
    :country: 'Poland'
    :coords:
      :lat: 50.918619
      :lon: 14.952285
    :classes:
      #OnetPl:
      #  :url: 'http://pogoda.onet.pl/prognoza-pogody/dlugoterminowa/europa,polska,siedlce,9236.html'
      WpPl:
        :url: 'http://pogoda.wp.pl/cid,43434,miasto,Bogatynia,dlugoterminowa.html'
      InteriaPl:
        :url: 'http://pogoda.interia.pl/prognoza-szczegolowa-bogatynia,cId,1869'

  - :name: 'Lubawka'
    :country: 'Poland'
    :coords:
      :lat: 50.704721
      :lon: 15.998046
    :classes:
      OnetPl:
        :url: 'http://pogoda.onet.pl/prognoza-pogody/dlugoterminowa/europa,polska,lubawka,9215.html'
      #WpPl:
      #  :url: 'http://pogoda.wp.pl/miasto,siedlce,mid,1201232,mi.html'
      InteriaPl:
        :url: 'http://pogoda.interia.pl/prognoza-szczegolowa-lubawka,cId,19265'

  - :name: 'Kudowa Zdrój'
    :country: 'Poland'
    :coords:
      :lat: 50.436079
      :lon: 16.233566
    :classes:
      #OnetPl:
      #  :url: 'http://pogoda.onet.pl/prognoza-pogody/dlugoterminowa/europa,polska,siedlce,9236.html'
      WpPl:
        :url: 'http://pogoda.wp.pl/cid,43530,miasto,Kudowa-Zdr%C3%B3j,dlugoterminowa.html'
      InteriaPl:
        :url: 'http://pogoda.interia.pl/prognoza-szczegolowa-kudowa-zdroj,cId,17165'

  - :name: 'Międzylesie'
    :country: 'Poland'
    :coords:
      :lat: 50.149626
      :lon: 16.666839
    :classes:
      #OnetPl:
      #  :url: 'http://pogoda.onet.pl/prognoza-pogody/dlugoterminowa/europa,polska,siedlce,9236.html'
      #WpPl:
      #  :url: 'http://pogoda.wp.pl/miasto,siedlce,mid,1201232,mi.html'
      InteriaPl:
        :url: 'http://pogoda.interia.pl/prognoza-szczegolowa-miedzylesie,cId,21097'


  - :name: 'Międzygórze'
    :country: 'Poland'
    :coords:
      :lat: 50.230077
      :lon: 16.766113
    :classes:
      #OnetPl:
      #  :url: ''
      #WpPl:
      #  :url: ''
      InteriaPl:
        :url: 'http://pogoda.interia.pl/prognoza-szczegolowa-miedzygorze,cId,21058'

  - :name: 'Prudnik'
    :country: 'Poland'
    :coords:
      :lat: 50.320258
      :lon: 17.576355
    :classes:
      OnetPl:
        :url: 'http://pogoda.onet.pl/prognoza-pogody/dlugoterminowa/europa,polska,prudnik,9334.html'
      WpPl:
        :url: 'http://pogoda.wp.pl/cid,43543,miasto,Prudnik,dlugoterminowa.html'
      InteriaPl:
        :url: 'http://pogoda.interia.pl/prognoza-szczegolowa-prudnik,cId,27615'

  - :name: 'Rycerka Górna'
    :country: 'Poland'
    :coords:
      :lat: 49.468124
      :lon: 19.029495
    :classes:
      #OnetPl:
      #  :url: ''
      #WpPl:
      #  :url: ''
      InteriaPl:
        :url: 'http://pogoda.interia.pl/prognoza-szczegolowa-rycerka-gorna,cId,30113'

  - :name: 'Korbielów'
    :country: 'Poland'
    :coords:
      :lat: 49.567421
      :lon: 19.350179
    :classes:
      OnetPl:
        :url: 'http://pogoda.onet.pl/prognoza-pogody/dlugoterminowa/europa,polska,korbielow,9290.html'
      WpPl:
        :url: 'http://pogoda.wp.pl/name,KorbielowPilsko,srid,3059,dla_narciarzy_osrodek.html'
      InteriaPl:
        :url: 'http://pogoda.interia.pl/prognoza-szczegolowa-korbielow,cId,15410'


  - :name: 'Czarny Dunajec'
    :country: 'Poland'
    :coords:
      :lat: 49.440896
      :lon: 19.851898
    :classes:
      #OnetPl:
      #  :url: ''
      #WpPl:
      #  :url: ''
      InteriaPl:
        :url: 'http://pogoda.interia.pl/prognoza-szczegolowa-czarny-dunajec,cId,5237'



  - :name: 'Piwniczna Zdrój'
    :country: 'Poland'
    :coords:
      :lat: 49.437994
      :lon: 20.712608
    :classes:
      OnetPl:
        :url: 'http://pogoda.onet.pl/prognoza-pogody/dlugoterminowa/europa,polska,piwniczna,9293.html'
      WpPl:
        :url: 'http://pogoda.wp.pl/cid,43401,miasto,Piwniczna-Zdr%C3%B3j,dlugoterminowa.html'
      InteriaPl:
        :url: 'http://pogoda.interia.pl/prognoza-szczegolowa-piwniczna,cId,26155'


  - :name: 'Wysowa'
    :country: 'Poland'
    :coords:
      :lat: 49.434534
      :lon: 21.179554
    :classes:
      #OnetPl:
      #  :url: ''
      #WpPl:
      #  :url: ''
      InteriaPl:
        :url: 'http://pogoda.interia.pl/prognoza-szczegolowa-wysowa,cId,39673'


  - :name: 'Jaśliska'
    :country: 'Poland'
    :coords:
      :lat: 49.441789
      :lon: 21.806778
    :classes:
      #OnetPl:
      #  :url: ''
      #WpPl:
      #  :url: ''
      InteriaPl:
        :url: 'http://pogoda.interia.pl/prognoza-szczegolowa-jasliska,cId,11528'


  - :name: 'Radoszyce'
    :country: 'Poland'
    :coords:
      :lat: 49.304531
      :lon: 22.054313
    :classes:
      #OnetPl:
      #  :url: ''
      #WpPl:
      #  :url: ''
      InteriaPl:
        :url: 'http://pogoda.interia.pl/prognoza-szczegolowa-radoszyce,cId,28593'


  - :name: 'Wołosate'
    :country: 'Poland'
    :coords:
      :lat: 49.067793
      :lon: 22.678844
    :classes:
      #OnetPl:
      #  :url: ''
      #WpPl:
      #  :url: ''
      InteriaPl:
        :url: 'http://pogoda.interia.pl/prognoza-szczegolowa-wolosate,cId,39128'


  - :name: 'Leczna'
    :country: 'Poland'
    :coords:
      :lat: 51.304004
      :lon: 22.878234
    :classes:
      OnetPl:
        :url: 'http://pogoda.onet.pl/prognoza-pogody/dlugoterminowa/europa,polska,leczna,9225.html'
      WpPl:
        :url: 'http://pogoda.wp.pl/cid,43463,miasto,%C5%81%C4%99czna,dlugoterminowa.html'
      InteriaPl:
        :url: 'http://pogoda.interia.pl/prognoza-szczegolowa-leczna,cId,18121'


#  - :name: ''
#    :country: 'Poland'
#    :coords:
#      :lat:
#      :lon:
#    :classes:
#      OnetPl:
#        :url: ''
#      WpPl:
#        :url: ''
#      InteriaPl:
#        :url: ''


#  - :name: ''
#    :country: 'Poland'
#    :coords:
#      :lat:
#      :lon:
#    :classes:
#      OnetPl:
#        :url: ''
#      WpPl:
#        :url: ''
#      InteriaPl:
#        :url: ''


#  - :name: ''
#    :country: 'Poland'
#    :coords:
#      :lat:
#      :lon:
#    :classes:
#      OnetPl:
#        :url: ''
#      WpPl:
#        :url: ''
#      InteriaPl:
#        :url: ''
#  - :name: ''
#    :country: 'Poland'
#    :coords:
#      :lat:
#      :lon:
#    :classes:
#      OnetPl:
#        :url: ''
#      WpPl:
#        :url: ''
#      InteriaPl:
#        :url: ''

# not in Poland
  - :name: Muenster/Osnabrueck
    :country: Germany
    :metar: EDDG
    :coords:
      :lat: 52.1346
      :lon: 7.6848
  - :name: Kardla
    :country: Estonia
    :metar: EEKA
    :coords:
      :lat: 58.9908
      :lon: 22.8307
  - :name: Stockholm
    :country: Sweden
    :metar: ESCM
    :coords:
      :lat: 59.6167
      :lon: 17.95
  - :name: Samedan
    :country: Switzerland
    :metar: LSZS
    :coords:
      :lat: 46.5341
      :lon: 9.8841
  - :name: Helsinki-vantaa
    :country: Finland
    :metar: EFHK
    :coords:
      :lat: 60.3172
      :lon: 24.9633
  - :name: K14-fa-1c
    :country: Netherlands
    :metar: EHKV
    :coords:
      :lat: 53.2667
      :lon: 3.6333
  - :name: D15-fa-1
    :country: Netherlands
    :metar: EHDV
    :coords:
      :lat: 54.3167
      :lon: 2.9333
  - :name: St. Peterburg
    :country: Russia
    :metar: ULLI
    :coords:
      :lat: 59.9667
      :lon: 30.3
  - :name: Southend-On-Sea
    :country: UK
    :metar: EGMC
    :coords:
      :lat: 51.5714
      :lon: 0.6956
  - :name: London Stansted
    :country: UK
    :metar: EGSS
    :coords:
      :lat: 51.885
      :lon: 0.235
  - :name: London
    :country: UK
    :metar: EGLL
    :coords:
      :lat: 51.470969
      :lon: -0.45393
  - :name: Oulu
    :country: Finland
    :metar: EFOU
    :coords:
      :lat: 64.9301
      :lon: 25.3546
  - :name: Hailuoto
    :country: Finland
    :metar: EFHL
    :coords:
      :lat: 65.096198
      :lon: 24.733886
  - :name: Sumburgh Cape
    :country: UK
    :metar: EGPB
    :coords:
      :lat: 59.8789
      :lon: -1.2956
  - :name: Luhansk
    :country: Ukraine
    :metar: UKCW
    :coords:
      :lat: 48.4174
      :lon: 39.3741
  - :name: Heidrun
    :country: Norway
    :metar: ENHE
    :coords:
      :lat: 65.33
      :lon: 2.33
  - :name: Kittila
    :country: Finland
    :metar: EFKT
    :coords:
      :lat: 67.701
      :lon: 24.8468
  - :name: Enontekio
    :country: Finland
    :metar: EFET
    :coords:
      :lat: 68.3626
      :lon: 23.4243
  - :name: Bardufoss
    :country: Norway
    :metar: ENDU
    :coords:
      :lat: 69.0558
      :lon: 18.5404
  - :name: Ivolo
    :country: Finland
    :metar: EFIV
    :coords:
      :lat: 68.674941
      :lon: 27.572021
  - :name: Kirkenes Lufthavn
    :country: Norway
    :metar: ENKR
    :coords:
      :lat: 69.7258
      :lon: 29.8913
  - :name: Hammerfest
    :country: Norway
    :metar: ENHF
    :coords:
      :lat: 70.6797
      :lon: 23.6686
  - :name: Honningsvag
    :country: Norway
    :metar: ENHV
    :coords:
      :lat: 71.0167
      :lon: 25.9833
  - :name: Ercan
    :country: Cyprus
    :metar: LCEN
    :coords:
      :lat: 35.1489
      :lon: 33.4997
  - :name: Akureyri
    :country: Iceland
    :metar: BIAR
    :coords:
      :lat: 65.6856
      :lon: -18.1002
  - :name: Cairo
    :country: Egypt
    :metar: HECA
    :coords:
      :lat: 30.111448
      :lon: 31.4139
  - :name: Cape Tobin
    :country: Greenland
    :metar: BGKT
    :coords:
      :lat: 70.40016
      :lon: -21.966662
  - :name: Svalbard Lufthavn
    :country: Norway
    :metar: ENBJ
    :coords:
      :lat: 78.2461
      :lon: 15.4656
  - :name: Laayoune/hassan Isl
    :country: Morocco
    :metar: GMML
    :coords:
      :lat: 27.1667
      :lon: -13.2167
  - :name: Alykel
    :country: Russia
    :metar: UOOO
    :coords:
      :lat: 69.3111
      :lon: 87.3322
  - :name: Godhavn
    :country: Greenland
    :metar: BGGN
    :coords:
      :lat: 69.253425
      :lon: -53.505249
  - :name: Alert Airport
    :country: Greenland
    :metar: CYLR
    :coords:
      :lat: 82.5178
      :lon: -62.2806
  - :name: Qaanaaq
    :country: Greenland
    :metar: BGQQ
    :coords:
      :lat: 77.4667
      :lon: -69.2167
  - :name: Dubai
    :country: UAE
    :metar: OMDB
    :coords:
      :lat: 25.252971
      :lon: 55.364714
  - :name: Sharjah International
    :country: UAE
    :metar: OMSJ
    :coords:
      :lat: 25.3286
      :lon: 55.5172
  - :name: Khatanga
    :country: Russia
    :metar: UOHH
    :coords:
      :lat: 71.9833
      :lon: 102.4667
  - :name: Maradi
    :country: Niger
    :metar: DRRM
    :coords:
      :lat: 13.4667
      :lon: 7.0833
  - :name: Eureka
    :country: Greenland
    :metar: CWEU
    :coords:
      :lat: 79.9833
      :lon: -85.9333
  - :name: Grise Fiord
    :country: Greenland
    :metar: CWGZ
    :coords:
      :lat: 76.4228
      :lon: -82.9022
  - :name: Sana'a
    :country: Yemen
    :metar: VNPK
    :coords:
      :lat: 15.5167
      :lon: 44.1833
  - :name: Saskylakh
    :country: Russia
    :metar: UERS
    :coords:
      :lat: 71.9667
      :lon: 114.0833
  - :name: Arctic Bay
    :country: Canada
    :metar: CXAT
    :coords:
      :lat: 73.0
      :lon: -85.0167
  - :name: Tiksi
    :country: Russia
    :metar: UEST
    :coords:
      :lat: 71.5833
      :lon: 128.9167
  - :name: S. Pedro
    :country: Cape Verde
    :metar: GVSV
    :coords:
      :lat: 16.8332
      :lon: -25.0555
  - :name: S. Tome
    :country: S. Tome
    :metar: FPPR
    :coords:
      :lat: 0.3782
      :lon: 6.7122
  - :name: Kathmandu
    :country: Nepal
    :metar: VNKT
    :coords:
      :lat: 27.6966
      :lon: 85.3591
  - :name: Bujumbura
    :country: Burundi
    :metar: HBBA
    :coords:
      :lat: -3.324
      :lon: 29.3185
  - :name: New York
    :country: USA
    :metar: KNYC
    :coords:
      :lat: 40.779
      :lon: -73.9692
  - :name: Khabarovsk
    :country: Russia
    :metar: UHHH
    :coords:
      :lat: 48.5167
      :lon: 135.1667
  - :name: Petropavlovsk-Kamchatskij
    :country: Russia
    :metar: UHPP
    :coords:
      :lat: 53.0833
      :lon: 158.5833
  - :name: Rome
    :country: USA
    :metar: KRMG
    :coords:
      :lat: 34.351458
      :lon: -85.163326
  - :name: Grootfontein
    :country: Namibia
    :metar: FXMM
    :coords:
      :lat: -19.6022
      :lon: 18.1227
  - :name: Vancouver
    :country: Canada
    :metar: CYVR
    :coords:
      :lat: 49.1939
      :lon: -123.1844
  - :name: E. T. Joshua Airport
    :country: Lesser Antilles
    :metar: TVSV
    :coords:
      :lat: 13.1435
      :lon: -61.2124
  - :name: Tamatave
    :country: Madagascar
    :metar: FYGF
    :coords:
      :lat: -18.1095
      :lon: 49.3925
  - :name: Portland
    :country: USA
    :metar: KPDX
    :coords:
      :lat: 45.5908
      :lon: -122.6003
  - :name: Tokyo
    :country: Japan
    :metar: RJTT
    :coords:
      :lat: 35.5523
      :lon: 139.7797
  - :name: Plaisance Mauritius
    :country: Mauritius
    :metar: FIMP
    :coords:
      :lat: -20.4302
      :lon: 57.6836
  - :name: Maseru
    :country: Lesotho
    :metar: FXMU
    :coords:
      :lat: -29.4623
      :lon: 27.5525
  - :name: Los Angeles
    :country: USA
    :metar: KLAX
    :coords:
      :lat: 33.946251
      :lon: -118.408442
  - :name: Porto Velho
    :country: Brazil
    :metar: SBPV
    :coords:
      :lat: -8.7667
      :lon: -63.9167
  - :name: Jakarta
    :country: Java
    :metar: WIID
    :coords:
      :lat: -6.15
      :lon: 106.85
  - :name: Wake Island
    :country: Xmas Island
    :metar: PWAK
    :coords:
      :lat: 19.2821
      :lon: 166.6364
  - :name: Honolulu
    :country: Hawaii
    :metar: PHNL
    :coords:
      :lat: 21.333065
      :lon: -157.918282
  - :name: Mount Pleasant
    :country: Falkland Islands
    :metar: EGYP
    :coords:
      :lat: -51.8228
      :lon: -58.4472
  - :name: Honiara
    :country: Solomon Islands
    :metar: AGGH
    :coords:
      :lat: -9.428
      :lon: 160.0548
  - :name: Isla De Pascua
    :country: Polynesia
    :metar: SCIP
    :coords:
      :lat: -27.1648
      :lon: -109.4218
  - :name: Pago Pago
    :country: Samoa
    :metar: NSTU
    :coords:
      :lat: -14.331
      :lon: -170.7105
  - :name: Amundsen-Scott
    :country: Antarctica
    :metar: NZSP
    :coords:
      :lat: -89.983333
      :lon: 179.983333
  - :name: Williams Field
    :country: Antarctica
    :metar: NZCM
    :coords:
      :lat: -77.866667
      :lon: 166.966667
  - :name: Auckland
    :country: New Zeland
    :metar: NZAA
    :coords:
      :lat: -37.005058
      :lon: 174.784025